{
  "northernStations": [
    {
      "id": "35T",
      "name": "ต.ช้างเผือก อ.เมือง จ.เชียงใหม่",
      "location": "ศูนย์ราชการจังหวัดเชียงใหม่",
      "lat": 18.81667,
      "lng": 98.97507
    },
    {
      "id": "36T",
      "name": "ต.ศรีภูมิ อ.เมือง จ.เชียงใหม่",
      "location": "โรงเรียนยุพราชวิทยาลัย",
      "lat": 18.78969,
      "lng": 98.98765
    },
    {
      "id": "37T",
      "name": "ต.พระบาท อ.เมือง จ.ลำปาง",
      "location": "สถานีอุตุนิยมวิทยาลำปาง",
      "lat": 18.27934,
      "lng": 99.50597
    },
    {
      "id": "38T",
      "name": "ต.สบป้าด อ.แม่เมาะ จ.ลำปาง",
      "location": "โรงพยาบาลส่งเสริมสุขภาพตำบลบ้านสบป้าด",
      "lat": 18.25039,
      "lng": 99.76389
    },
    {
      "id": "39T",
      "name": "ต.บ้านดง อ.แม่เมาะ จ.ลำปาง",
      "location": "โรงพยาบาลส่งเสริมสุขภาพตำบลท่าสี",
      "lat": 18.42718005102614, 
      "lng": 99.75774555430152
    },
    {
      "id": "40T",
      "name": "ต.แม่เมาะ อ.แม่เมาะ จ.ลำปาง",
      "location": "สำนักงานการประปาส่วนภูมิภาคอำเภอแม่เมาะ",
      "lat": 18.28170156559635,
      "lng": 99.65913186779285
    },
    {
      "id": "41T",
      "name": "ต.ปากน้ำโพ อ.เมือง จ.นครสวรรค์",
      "location": "โครงการชลประทานนครสวรรค์",
      "lat": 15.69305,
      "lng": 100.13637
    },
    {
      "id": "57T",
      "name": "ต.เวียง อ.เมือง จ.เชียงราย",
      "location": "สำนักงานทรัพยากรธรรมชาติและสิ่งแวดล้อมจังหวัดเชียงราย",
      "lat": 19.90775,
      "lng": 99.83229
    },
    {
      "id": "73T",
      "name": "ต.เวียงพางคำ อ.แม่สาย จ.เชียงราย",
      "location": "สำนักงานสาธารณสุขอำเภอแม่สาย",
      "lat": 20.427486955876788,
      "lng": 99.88359167152342
    },
    {
      "id": "58T",
      "name": "ต.จองคำ อ.เมือง จ.แม่ฮ่องสอน",
      "location": "สำนักงานทรัพยากรธรรมชาติและสิ่งแวดล้อมจังหวัดแม่ฮ่องสอน",
      "lat": 19.30137,
      "lng": 97.97076
    },
    {
      "id": "67T",
      "name": "ต.ในเวียง อ.เมือง จ.น่าน",
      "location": "สำนักงานเทศบาลเมืองน่าน",
      "lat": 18.77968,
      "lng": 100.77198
    },
    {
      "id": "75T",
      "name": "ต.ห้วยโก๋น อ.เฉลิมพระเกียรติ จ.น่าน",
      "location": "โรงพยาบาลเฉลิมพระเกียรติ น่าน",
      "lat": 19.575694738544314,
      "lng": 101.08206898315437
    },
    {
      "id": "68T",
      "name": "ต.บ้านกลาง อ.เมือง จ.ลำพูน",
      "location": "สถานีอุตุนิยมวิทยาลำพูน",
      "lat": 18.58027,
      "lng": 99.00897
    },
    {
      "id": "69T",
      "name": "ต.นาจักร อ.เมือง จ.แพร่",
      "location": "สถานีอุตุนิยมวิทยาแพร่",
      "lat": 18.14595,
      "lng": 100.14092
    },
    {
      "id": "70T",
      "name": "ต.บ้านต๋อม อ.เมืองพะเยา จ.พะเยา",
      "location": "สนามกีฬาจังหวัดพะเยา",
      "lat": 19.16792,
      "lng": 99.89756
    },
    {
      "id": "76T",
      "name": "ต.แม่ปะ อ.แม่สอด จ.ตาก",
      "location": "ศูนย์การศึกษานอกระบบอำเภอแม่สอด",
      "lat": 16.746463959589768,
      "lng": 98.57437426524484
    },
    {
      "id": "86T",
      "name": "ต.ในเมือง อ.เมือง จ.พิษณุโลก",
      "location": "สวนชมน่าน บริเวณหน้าวิทยาลัยอาชีวศึกษาพิษณุโลก",
      "lat": 16.822239478476256,
      "lng": 100.26022534263504
    },
    {
      "id": "92T",
      "name": "ต.ท่าอิฐ อ.เมือง จ.อุตรดิตถ์",
      "location": "บริเวณภายในพื้นที่สวนมหามงคลเฉลิมพระเกียรติพระชนมพรรษา 6 รอบ 5 ธันวาคม 2552",
      "lat": 17.62835843813758,
      "lng": 100.09918894606731
    },
    {
      "id": "94T",
      "name": "ต.ในเมือง อ.เมืองกำแพงเพชร จ.กำแพงเพชร",
      "location": "ลานอนุรักษ์วัฒนธรรมไทยสิริจิตอุทยาน",
      "lat": 16.475693168876052,
      "lng": 99.52402131194627
    },
    {
      "id": "95T",
      "name": "ต.ในเมือง อ.เมืองพิจิตร จ.พิจิตร",
      "location": "สนามกีฬาจังหวัดพิจิตร",
      "lat": 16.443165384696986,
      "lng": 100.32399413893262
    },
    {
      "id": "96T",
      "name": "ต.ธานี อ.เมือง จ.สุโขทัย",
      "location": "สวนสาธารณะ ชุมชนเลอไทย",
      "lat": 17.008602242485505,
      "lng": 99.8184508
    },
    {
      "id": "97T",
      "name": "ต.ในเมือง อ.เมืองเพชรบูรณ์ จ.เพชรบูรณ์",
      "location": "สวนสาธารณะเพชบุระ",
      "lat": 16.419468253764276,
      "lng": 101.15709676961667
    },
    {
      "id": "98T",
      "name": "ต.อุทัยใหม่ อ.เมืองอุทัยธานี จ.อุทัยธานี",
      "location": "สวนเฉลิมพระเกียรติพระบาทสมเด็จพระเจ้าอยู่หัว เฉลิมพระชนมพรรษา 80 พรรษา",
      "lat": 15.384159973732876,
      "lng": 100.02499822542656
    },
    {
      "id": "22T",
      "name": "ต.บางพูด อ.ปากเกร็ด จ.นนทบุรี",
      "location": "มหาวิทยาลัยสุโขทัยธรรมาธิราช",
      "lat": 13.91873,
      "lng": 100.53727
    }
  ],
  "count": 24
}